[{"id":"1","pid":0,"name":"スープカレー専門店エスパーイトウ","web":"https://www.esper-ito.com/","map":"https://goo.gl/maps/NpLVm5cpbZ4u86bR9","latitude":43.054884,"longitude":141.399229,"data":[{"yid":"_OUfMRw8q6I","time":5580}]},{"id":"2","pid":0,"name":"白い恋人パーク","web":"https://www.shiroikoibitopark.jp/","map":"https://goo.gl/maps/YsrxSVcdfo36Aqe69","latitude":43.0886783,"longitude":141.2715986,"data":[{"yid":"UeNWw4uxSgs","time":1502}]},{"id":"3","pid":0,"name":"らーめん空（そら）","web":"https://www.new-chitose-airport.jp/ja/tmap/floor/?floor=3f&id=238&area=domestic","map":"https://goo.gl/maps/VxZNZG9echKZwTmJ7","latitude":42.7878545,"longitude":141.6803072,"data":[{"yid":"FKY-fLDm6cQ","time":935}]},{"id":"4","pid":39,"name":"前田屋","web":"https://motsunabe-maedaya.com/","map":"https://goo.gl/maps/Y5KKRnYjecQ1m2989","latitude":33.5918748,"longitude":130.4101143,"data":[{"yid":"6jR2CrJLyQA","time":892},{"yid":"n6MJVHargLM","time":3478}]},{"id":"5","pid":39,"name":"伊都きんぐ","web":"https://www.itoking.jp/","map":"https://goo.gl/maps/Z3pJTJjnGKc4yiebA","latitude":33.5872354,"longitude":130.4001417,"data":[{"yid":"6jR2CrJLyQA","time":2282}]},{"id":"6","pid":39,"name":"飯家 くーた","web":"http://www.ku-ta.net/","map":"https://goo.gl/maps/srFqvKFHLkWvwiHq5","latitude":33.5908908,"longitude":130.4045131,"data":[{"yid":"6jR2CrJLyQA","time":4037}]},{"id":"7","pid":39,"name":"ラーメン海鳴 福岡空港店","web":"https://ramen-unari.com/fukuoka-airport/","map":"https://goo.gl/maps/VznLmPZG2iWTrRd1A","latitude":33.5985219,"longitude":130.447534,"data":[{"yid":"FKY-fLDm6cQ","time":390}]},{"id":"8","pid":42,"name":"高崎山自然動物園","web":"https://www.takasakiyama.jp/","map":"https://goo.gl/maps/ku4rrDw3wix9iWAj7","latitude":33.258285,"longitude":131.532804,"data":[{"yid":"rf4H1OXKyik","time":0}]},{"id":"9","pid":4,"name":"Souffle Pancake Rocco","web":"https://tabelog.com/akita/A0501/A050101/5009865/","map":"https://goo.gl/maps/XFkPgR74JJU7bt1W8","latitude":39.7241216,"longitude":140.1324325,"data":[{"yid":"yB7yxwpGDxs","time":1425}]},{"id":"10","pid":4,"name":"nouty","web":"https://nouty.net/","map":"https://goo.gl/maps/65xgui175zFajkfY7","latitude":39.724015,"longitude":140.132764,"data":[{"yid":"yB7yxwpGDxs","time":2110}]},{"id":"11","pid":4,"name":"懐かしの味支那そば","web":"http://a-marugoto.net/hpgen/HPB/entries/44.html","map":"https://goo.gl/maps/KCPxijbJJsry7JSAA","latitude":39.700486,"longitude":140.109516,"data":[{"yid":"yB7yxwpGDxs","time":3718}]},{"id":"12","pid":4,"name":"中居釣具店","web":"https://tabelog.com/akita/A0501/A050101/5010551/","map":"https://goo.gl/maps/yahrpkmmKxXRad6Y8","latitude":39.7147064,"longitude":140.1132784,"data":[{"yid":"yB7yxwpGDxs","time":4952}]},{"id":"13","pid":38,"name":"松岡かまぼこ店","web":"https://www.matsukama.com/","map":"https://goo.gl/maps/ZP4tcNm3XLXeL2Ba6","latitude":33.5595663,"longitude":133.5310406,"data":[{"yid":"gzHe9AbRf5g","time":862}]},{"id":"14","pid":38,"name":"喫茶 SPOON","web":"https://www.instagram.com/spoon.1971/?hl=ja","map":"https://goo.gl/maps/afB1SMCm3kNkjftS8","latitude":33.5594192,"longitude":133.5330786,"data":[{"yid":"gzHe9AbRf5g","time":1279}]},{"id":"15","pid":38,"name":"黒潮ひろば","web":"https://www.tosa9640.com/hiroba","map":"https://goo.gl/maps/o3yBEa3dCHG4KMPc6","latitude":33.5604182,"longitude":133.536231,"data":[{"yid":"gzHe9AbRf5g","time":1860}]},{"id":"16","pid":38,"name":"明神丸","web":"http://myojinmaru.jp/","map":"https://goo.gl/maps/LNDzu39f5pbj4qraA","latitude":33.560336,"longitude":133.535747,"data":[{"yid":"gzHe9AbRf5g","time":2404}]},{"id":"17","pid":38,"name":"城西館","web":"https://www.jyoseikan.co.jp/","map":"https://goo.gl/maps/8s7UFscmGXgWBJT8A","latitude":33.5570529,"longitude":133.5243515,"data":[{"yid":"gzHe9AbRf5g","time":7592}]},{"id":"18","pid":41,"name":"てん新奥座敷","web":"https://www.tenshin0014.com/restaurant","map":"https://goo.gl/maps/uVyu1yf8NdZVe8Zp8","latitude":32.9051134,"longitude":129.9526214,"data":[{"yid":"c5kOKsu5DoM","time":1086}]},{"id":"19","pid":41,"name":"おおむら夢ファームシュシュ","web":"http://chouchou.co.jp/","map":"https://goo.gl/maps/13McrPT7bze4dNMG6","latitude":32.9663494,"longitude":129.9569147,"data":[{"yid":"c5kOKsu5DoM","time":1645}]},{"id":"20","pid":41,"name":"ボートレース大村","web":"https://omurakyotei.jp/","map":"https://goo.gl/maps/w6bggAVPzhPnVmiZ8","latitude":32.897169,"longitude":129.951799,"data":[{"yid":"c5kOKsu5DoM","time":2086}]},{"id":"21","pid":41,"name":"長崎バイオパーク","web":"https://www.biopark.co.jp/","map":"https://goo.gl/maps/3VqBZLMYA6XDg5Qf6","latitude":32.9881189,"longitude":129.7832963,"data":[{"yid":"c5kOKsu5DoM","time":3392}]},{"id":"22","pid":41,"name":"文明堂 観光通店","web":"https://bunmeido.ne.jp/","map":"https://goo.gl/maps/rmNjga7d6HhPvx1W6","latitude":32.7435284,"longitude":129.8767675,"data":[{"yid":"c5kOKsu5DoM","time":3907}]},{"id":"23","pid":24,"name":"西成ホルモンレディゴー","web":"https://www.instagram.com/readygo.official/","map":"https://goo.gl/maps/Lcds5tzfAs8jS9JCA","latitude":34.6484561,"longitude":135.5027024,"data":[{"yid":"yiT7BM7b5ME","time":0},{"yid":"mJAPu4bHAPk","time":9272}]},{"id":"24","pid":24,"name":"銀仁","web":"https://tabelog.com/osaka/A2701/A270406/27103104/","map":"https://goo.gl/maps/NPvCjSYzJfoA2VV97","latitude":34.6468076,"longitude":135.5026515,"data":[{"yid":"yiT7BM7b5ME","time":1865}]},{"id":"25","pid":24,"name":"とり香","web":"https://tabelog.com/osaka/A2701/A270406/27114373/","map":"https://goo.gl/maps/LKMdSD3enAACUBcT6","latitude":34.64544,"longitude":135.5019893,"data":[{"yid":"yiT7BM7b5ME","time":2770}]},{"id":"26","pid":24,"name":"西成カズキん家","web":"https://www.instagram.com/nisinarikazukinchi/","map":"https://goo.gl/maps/PQWcPPHQgptz5kkC6","latitude":34.6450434,"longitude":135.5003705,"data":[{"yid":"yiT7BM7b5ME","time":4096}]},{"id":"27","pid":27,"name":"遊楽舎","web":"https://yuurakusya.com/","map":"https://goo.gl/maps/EHumT6WqesaC8cWS7","latitude":34.83852,"longitude":134.7291718,"data":[{"yid":"TpHcPN0PIVA","time":2420},{"yid":"T9dB6Zb-aaY","time":0},{"yid":"LYNScukxFBU","time":0}]},{"id":"28","pid":27,"name":"べんてん屋","web":"https://tabelog.com/hyogo/A2805/A280501/28015336/","map":"https://goo.gl/maps/B8PyRdCAmZ63mQWu6","latitude":34.8383556,"longitude":134.7293383,"data":[{"yid":"QAPf05gFmGo","time":0},{"yid":"qZe-xI5q5zg","time":0},{"yid":"TpHcPN0PIVA","time":1359}]},{"id":"29","pid":27,"name":"ゲームアイビス太子店","web":"http://www.aivis.jp/","map":"https://goo.gl/maps/xcWYzc7NPBr9uWss5","latitude":34.8320292,"longitude":134.600103,"data":[{"yid":"zk8UBq13mTs","time":0},{"yid":"5vqaWtwnnLg","time":0},{"yid":"zIkvx4L9q94","time":0}]},{"id":"30","pid":27,"name":"グリーンハット","web":"https://tabelog.com/hyogo/A2805/A280504/28060150/","map":"https://goo.gl/maps/Rt1sd9pDhxyZv3qw7","latitude":34.9759404,"longitude":134.7767981,"data":[{"yid":"VP5-zlNA0_w","time":0}]},{"id":"31","pid":27,"name":"神戸牛 吉祥吉","web":"https://kisshokichi-honten.koubegyuu.com/","map":"https://goo.gl/maps/5yrBCf7VWfk8P4QW6","latitude":34.6882715,"longitude":135.1874976,"data":[{"yid":"uz_SDX721ug","time":1061}]},{"id":"32","pid":27,"name":"神戸芋屋 志のもと","web":"https://shinomoto.net/","map":"https://goo.gl/maps/HqTMVnAkjkapCAbLA","latitude":34.6920027,"longitude":135.1915646,"data":[{"yid":"uz_SDX721ug","time":3258}]},{"id":"33","pid":27,"name":"小麦の禁断症状","web":"https://komugi-kindan.jp/","map":"https://goo.gl/maps/8TXsDCufEEGgH3yy8","latitude":34.6901233,"longitude":135.1900685,"data":[{"yid":"uz_SDX721ug","time":3605}]},{"id":"34","pid":27,"name":"放香堂加琲","web":"https://www.hokodocoffee.com/","map":"https://goo.gl/maps/rfeedguGvS9Xk6dR6","latitude":34.6874966,"longitude":135.1849423,"data":[{"yid":"uz_SDX721ug","time":4874}]},{"id":"35","pid":22,"name":"岡崎城","web":"https://okazaki-kanko.jp/okazaki-park/feature/okazakijo/top","map":"https://goo.gl/maps/NRzt8ku7EiJVWzMz5","latitude":34.956343,"longitude":137.1587937,"data":[{"yid":"yZK8sSRk8Sc","time":2251}]},{"id":"36","pid":7,"name":"牛牛","web":"https://www.gyu-gyu.com/","map":"https://goo.gl/maps/V6jCqWGnLxtBU7mi7","latitude":35.6616031,"longitude":139.7276679,"data":[{"yid":"vGZS11w7OLI","time":0},{"yid":"KzLFRtMS2ag","time":0},{"yid":"vtg0sAAjJz8","time":0}]},{"id":"37","pid":7,"name":"牛宮城","web":"https://gyugujo.co.jp/","map":"https://goo.gl/maps/cy8d35DSQ4nHmFrC6","latitude":35.6614468,"longitude":139.6980632,"data":[{"yid":"hl3hu5gx8HY","time":0},{"yid":"Mc4ib2nLHJQ","time":0},{"yid":"omPkZAWVUGg","time":0}]},{"id":"38","pid":7,"name":"近未来餃子H","web":"https://gyoza-h.jp/","map":"https://goo.gl/maps/m9TZkRdfZugoq4jP6","latitude":35.6611287,"longitude":139.6985164,"data":[{"yid":"zvmGMxXGK2g","time":0},{"yid":"GHWn4Vxw4rw","time":0},{"yid":"8Ctn1bAcFxc","time":0}]},{"id":"39","pid":7,"name":"大衆酒場スシスミビ 下北沢店","web":"https://tabelog.com/tokyo/A1318/A131802/13254001/","map":"https://goo.gl/maps/p9c3vwMdeWieEWyu5","latitude":35.6595366,"longitude":139.6666438,"data":[{"yid":"ZsVEPrx44vQ","time":0}]},{"id":"40","pid":10,"name":"道の駅 オアシスなんもく","web":"http://www.nanmoku.ne.jp/modules/oasis/index.php?content_id=4","map":"https://goo.gl/maps/cVkC4S5uXEfLZ5HB8","latitude":36.178164,"longitude":138.7415868,"data":[{"yid":"VWUuDM8-jAQ","time":1013}]},{"id":"41","pid":10,"name":"SUNAGA（スナガ）","web":"https://sk2014.jp/","map":"https://goo.gl/maps/cbVP7iTLPbw5XcBS8","latitude":36.3257664,"longitude":139.0102092,"data":[{"yid":"VWUuDM8-jAQ","time":2286}]},{"id":"42","pid":10,"name":"草津温泉 ての字屋","web":"https://www.tenojiya.co.jp/","map":"https://goo.gl/maps/94qzbbpD2vagra5X7","latitude":36.6233671,"longitude":138.5979137,"data":[{"yid":"k3etttpqfuc","time":1309}]},{"id":"43","pid":36,"name":"天空のアクアリウム ソラキン","web":"https://www.goldtower.co.jp/spi/sorakin/","map":"https://goo.gl/maps/Uq9pvgp5H6kXXXt48","latitude":34.3114294,"longitude":133.8084198,"data":[{"yid":"pY1Hx1kES-M","time":43}]},{"id":"44","pid":36,"name":"積凪（ゲストハウス）","web":"https://tsumunagi.jp/","map":"https://goo.gl/maps/WmMx9vsuHCKptD9D9","latitude":34.2482741,"longitude":133.6125445,"data":[{"yid":"pY1Hx1kES-M","time":724}]},{"id":"45","pid":36,"name":"志度カントリークラブ","web":"https://www.shidocc.com/","map":"https://goo.gl/maps/CUCF8JWgYmCyymse8","latitude":34.340854,"longitude":134.249936,"data":[{"yid":"pY1Hx1kES-M","time":1572}]},{"id":"46","pid":36,"name":"うどん本陣山田家","web":"https://yamada-ya.com/honten.html","map":"https://goo.gl/maps/55n1BrQJNfC6ZDSV9","latitude":34.3532536,"longitude":134.1296254,"data":[{"yid":"pY1Hx1kES-M","time":1743}]},{"id":"47","pid":21,"name":"ちっきん(藤枝/ラーメン)","web":"https://tabelog.com/shizuoka/A2203/A220301/22018484/","map":"https://goo.gl/maps/RhWGxL3Sy7vvcwKXA","latitude":34.8728953,"longitude":138.2778542,"data":[{"yid":"-lrfj4vU0o4","time":2940}]},{"id":"48","pid":14,"name":"くいどころ里味 須頃店","web":"https://www.sato-mi.com/","map":"https://goo.gl/maps/uLJJwexaduqvCUtK8","latitude":37.644094,"longitude":138.940587,"data":[{"yid":"XyJ7tbXczKA","time":0}]},{"id":"49","pid":9,"name":"ツインリンクもてぎ","web":"https://www.mr-motegi.jp/","map":"https://goo.gl/maps/BfhgB1iEFaMYxJkX9","latitude":36.531391,"longitude":140.2178745,"data":[{"yid":"KTzOeb_rzOE","time":0}]},{"id":"50","pid":6,"name":"震災遺構 浪江町立請戸小学校","web":"https://namie-ukedo.com/","map":"https://goo.gl/maps/pivivc2fETADkgPbA","latitude":37.475132,"longitude":141.0346993,"data":[{"yid":"fUZECyO1914","time":2484}]},{"id":"51","pid":6,"name":"坂内食堂","web":"https://ban-nai.com/","map":"https://goo.gl/maps/Q2is4twTPD8iQQiK7","latitude":37.6510749,"longitude":139.8735085,"data":[{"yid":"FKY-fLDm6cQ","time":1629}]},{"id":"52","pid":7,"name":"本格大衆焼肉 飯田屋","web":"https://www.instagram.com/iidaya_shibuya/?hl=ja","map":"https://maps.app.goo.gl/5vkjJETkzZWNdKTm8","latitude":35.6570562,"longitude":139.6967912,"data":[{"yid":"YlWHrqyH3Kg","time":1828}]},{"id":"53","pid":46,"name":"宮古そば まっすぐ","web":"https://www.instagram.com/miyakosoba.massugu/","map":"https://maps.app.goo.gl/vknBpxG8r985gBgt5","latitude":24.7410522,"longitude":125.3144169,"data":[{"yid":"8-p3Yg9pd_A","time":533}]},{"id":"54","pid":46,"name":"島の駅みやこ","web":"https://shimanoeki-miyako.com/","map":"https://maps.app.goo.gl/XfhVcEsCW2oiUMQ97","latitude":24.7958761,"longitude":125.2742848,"data":[{"yid":"8-p3Yg9pd_A","time":926}]},{"id":"55","pid":46,"name":"BLUE SEAL","web":"https://www.blueseal.co.jp/shop/painagama.html","map":"https://maps.app.goo.gl/osBfkPSerSSJeoWs5","latitude":24.7993166,"longitude":125.2694047,"data":[{"yid":"8-p3Yg9pd_A","time":1208}]},{"id":"56","pid":46,"name":"美ら島","web":"https://churashima.org/","map":"https://maps.app.goo.gl/QsG4xtQZjn7EWosw7","latitude":24.8038608,"longitude":125.2818885,"data":[{"yid":"8-p3Yg9pd_A","time":5398}]},{"id":"57","pid":46,"name":"あかがーら","web":"https://akagara-miyako.owst.jp/","map":"https://maps.app.goo.gl/cU5nTAE1CQdzkMx77","latitude":24.8050445,"longitude":125.2805258,"data":[{"yid":"8-p3Yg9pd_A","time":5655}]},{"id":"58","pid":46,"name":"レーベの村","web":"https://www.instagram.com/villageofloewe/?hl=ja","map":"https://maps.app.goo.gl/6kATe64JvMXtoDuZA","latitude":24.779731,"longitude":125.271763,"data":[{"yid":"8-p3Yg9pd_A","time":7271}]},{"id":"59","pid":9,"name":"日光ぐるめ 勇庵","web":"https://nikko-yuan11.crayonsite.com/","map":"https://maps.app.goo.gl/NquAozvXHUU8VcrH6","latitude":36.7511118,"longitude":139.6087371,"data":[{"yid":"WfAvqXC_iqo","time":1056}]},{"id":"60","pid":9,"name":"宇都宮みんみん 本店","web":"https://www.gyozakai.com/shop/24","map":"https://maps.app.goo.gl/bYYvFcqRL8SGXKZcA","latitude":36.5616176,"longitude":139.8851797,"data":[{"yid":"WfAvqXC_iqo","time":2951}]},{"id":"61","pid":9,"name":"中華料理・宇都宮餃子 めんめん","web":"http://utsunomiya-menmen.com/","map":"https://maps.app.goo.gl/LSPEkG33dbwDVcVc7","latitude":36.5587201,"longitude":139.8878806,"data":[{"yid":"WfAvqXC_iqo","time":3154}]},{"id":"62","pid":9,"name":"銘茶 関口園 本店","web":"http://www.sekiguchien.co.jp/","map":"https://maps.app.goo.gl/1r4XZgMmHsCbXGy26","latitude":36.5613013,"longitude":139.8865021,"data":[{"yid":"WfAvqXC_iqo","time":3314}]},{"id":"63","pid":7,"name":"ミチナキミチ","web":"https://www.instagram.com/michi_nakimichi/?hl=ja","map":"https://maps.app.goo.gl/y5FzsHmWey2xhWHp9","latitude":35.6623198,"longitude":139.6952099,"data":[{"yid":"L-2ZvkbGTLM","time":0}]},{"id":"64","pid":13,"name":"サープラ横浜あそびタウン","web":"https://3rd-planet.jp/shop/","map":"https://maps.app.goo.gl/LqayfuK9CQeRB2Td9","latitude":35.5523928,"longitude":139.5798066,"data":[{"yid":"MSlYiGmZZe0","time":0}]},{"id":"65","pid":11,"name":"ボートレース戸田","web":"https://www.boatrace-toda.jp/","map":"https://maps.app.goo.gl/n63DbfJ7JJ1sahgFA","latitude":35.8030885,"longitude":139.6582757,"data":[{"yid":"x0YThIS7YgY","time":0}]},{"id":"66","pid":7,"name":"焼肉 BEEFMAN 六本木本店","web":"https://beefman.net/","map":"https://maps.app.goo.gl/gZjqstYeHoS9Dtpg6","latitude":35.6635966,"longitude":139.7304437,"data":[{"yid":"x0YThIS7YgY","time":4359}]},{"id":"67","pid":12,"name":"松戸競輪場","web":"https://www.matsudokeirin.jp/","map":"https://maps.app.goo.gl/5T3LzZTLVtA9BqHN8","latitude":35.8041584,"longitude":139.9112492,"data":[{"yid":"x0YThIS7YgY","time":6464}]},{"id":"68","pid":18,"name":"富士急ハイランド","web":"https://www.fujiq.jp/","map":"https://maps.app.goo.gl/LafrCb3LfspgbXxk8","latitude":35.4870719,"longitude":138.7805625,"data":[{"yid":"FOsgWvtp180","time":3323}]},{"id":"69","pid":18,"name":"富士星空の村","web":"https://svfuji.jp/","map":"https://maps.app.goo.gl/A4RQxyYU8eNduozY7","latitude":35.4739562,"longitude":138.6933196,"data":[{"yid":"FOsgWvtp180","time":5166}]},{"id":"70","pid":13,"name":"和彩八倉 小町通り店","web":"https://www.wasai-yakura.com/","map":"https://maps.app.goo.gl/8tvCSVqZMYBqVrE18","latitude":35.3218388,"longitude":139.5524914,"data":[{"yid":"X6lBeAWCUb8","time":2537}]},{"id":"71","pid":13,"name":"鶴岡八幡宮","web":"https://www.hachimangu.or.jp/","map":"https://maps.app.goo.gl/xYAW1f96y9Bz9uQf7","latitude":35.3264304,"longitude":139.5566634,"data":[{"yid":"X6lBeAWCUb8","time":3403}]},{"id":"72","pid":7,"name":"焼肉うしごろ 池袋店","web":"https://sangue.co.jp/","map":"https://maps.app.goo.gl/4caon5jfEHxXJtGi7","latitude":35.7289895,"longitude":139.7156254,"data":[{"yid":"MQGWQhfKb7I","time":1144}]},{"id":"73","pid":7,"name":"鶏肉食堂 ザ・トリフターズ","web":"https://www.instagram.com/torifters","map":"https://maps.app.goo.gl/Bzyy3gr6QUvXybtf9","latitude":35.6613084,"longitude":139.6685959,"data":[{"yid":"yu8zENwCpfM","time":0}]},{"id":"74","pid":7,"name":"FOURTY FIVE","web":"https://fourty-five.com/","map":"https://maps.app.goo.gl/JKtToc5Au7iHiNRn7","latitude":35.6951112,"longitude":139.7036488,"data":[{"yid":"5COicAf-UvY","time":1038}]},{"id":"75","pid":13,"name":"東名下り海老名SA","web":"https://sapa.c-nexco.co.jp/sapa/shop/detail?sapashopid=1427","map":"https://maps.app.goo.gl/TpEPG4NezUU3tZ5t9","latitude":35.4311784,"longitude":139.4009203,"data":[{"yid":"mJAPu4bHAPk","time":2517}]},{"id":"76","pid":24,"name":"どうとんぼり神座　道頓堀本店","web":"https://kamukura.co.jp/","map":"https://maps.app.goo.gl/NHgPoK1HjVzpWUo48","latitude":34.6685542,"longitude":135.502896,"data":[{"yid":"mJAPu4bHAPk","time":15806}]},{"id":"77","pid":24,"name":"KADOMORI 大阪サロン","web":"https://kadomori-osaka.com/","map":"https://maps.app.goo.gl/KxeYoenycFwygS99A","latitude":34.6771066,"longitude":135.4964402,"data":[{"yid":"mJAPu4bHAPk","time":11205}]},{"id":"78","pid":7,"name":"ヒロキヤ","web":"https://tabelog.com/tokyo/A1307/A130701/13283501/","map":"https://maps.app.goo.gl/5trRKPN9VWYGQXMx8","latitude":35.6622902,"longitude":139.7341543,"data":[{"yid":"tsjwSrqO594","time":858}]},{"id":"79","pid":7,"name":"やきとりさんきゅう亀戸本店","web":"https://www.instagram.com/yakitor.39/","map":"https://maps.app.goo.gl/XAL6pMiuy3UVmrg16","latitude":35.6990336,"longitude":139.8261879,"data":[{"yid":"f9cjK31pix4","time":142}]},{"id":"80","pid":7,"name":"はあとねいる 新宿三丁目店","web":"https://beauty.hotpepper.jp/kr/slnH000661701/","map":"https://maps.app.goo.gl/XjLVHzVz1pcJpu4U7","latitude":35.6894825,"longitude":139.7086319,"data":[{"yid":"f9cjK31pix4","time":2928}]},{"id":"81","pid":7,"name":"TAMASORA GOLF","web":"https://tamasoragolf.com/","map":"https://maps.app.goo.gl/BLk5uGCezT8eqDmU8","latitude":35.6428436,"longitude":139.7494764,"data":[{"yid":"jx3my52UqlI","time":1345}]},{"id":"82","pid":27,"name":"本家かもめ屋","web":"https://honke-kamomeya.com/","map":"https://maps.app.goo.gl/kCxnShuXzSFuBr8w8","latitude":34.8673364,"longitude":134.7284863,"data":[{"yid":"zym3JlwnUms","time":2530},{"yid":"u_rMNA5lX2c","time":2537}]},{"id":"83","pid":7,"name":"LHP 原宿","web":"https://www.us-onlinestore.com/Lhp","map":"https://maps.app.goo.gl/fheBobDDrkn2576W8","latitude":35.6696563,"longitude":139.706617,"data":[{"yid":"8le6IGS5tk8","time":4505}]},{"id":"84","pid":0,"name":"弟子屈ラーメン","web":"http://www.teshikaga-ramen.com/","map":"https://maps.app.goo.gl/d7RFUXoQyoEgZqtLA","latitude":42.7877811,"longitude":141.6802741,"data":[{"yid":"Y6MO2ojPQQc","time":1245}]},{"id":"85","pid":7,"name":"隠岐の島水産","web":"https://www.instagram.com/okinoshima_shimokitazawa0321/","map":"https://maps.app.goo.gl/XjL5v2gMyB9JX5Ya8","latitude":35.6601523,"longitude":139.6679455,"data":[{"yid":"imkjusTIadc","time":438}]},{"id":"86","pid":7,"name":"トイザらス・ベビーザらス お台場店","web":"https://www.toysrus.co.jp/","map":"https://maps.app.goo.gl/5PVUzfB9KWNL74mH6","latitude":35.6275081,"longitude":139.7727568,"data":[{"yid":"xiQ34xb-u-Y","time":683}]},{"id":"87","pid":7,"name":"ヨドバシカメラ Akiba店","web":"http://www.yodobashi-akiba.com/","map":"https://maps.app.goo.gl/kihFrq6jF211C5Yt7","latitude":35.6989269,"longitude":139.7746677,"data":[{"yid":"xiQ34xb-u-Y","time":1334}]},{"id":"88","pid":7,"name":"やきにく九 西麻布本店","web":"https://glam-heaven-yakiniku9.com/","map":"https://maps.app.goo.gl/1ueVfgNLbnhw6AUw9","latitude":35.6613821,"longitude":139.7241235,"data":[{"yid":"KSIfy-sfA3o","time":374},{"yid":"WpGlLG-IKBQ","time":1917}]},{"id":"89","pid":7,"name":"イヤーエステ・ボニータボニート東京","web":"https://ear-esthetique.co.jp/","map":"https://maps.app.goo.gl/ek1ZjXxov3CvRZcm9","latitude":35.6495366,"longitude":139.7073286,"data":[{"yid":"WpGlLG-IKBQ","time":2842}]},{"id":"90","pid":18,"name":"グランピング ふじ・ふもとの森","web":"https://fumotonomori.jp/","map":"https://maps.app.goo.gl/nxBNBXUt2xNJo9zr8","latitude":35.4769897,"longitude":138.7496966,"data":[{"yid":"K4jLl5xXAiE","time":8142}]},{"id":"91","pid":10,"name":"まるか食品本社工場","web":"https://www.peyoung.co.jp/company/","map":"https://maps.app.goo.gl/Nm2pJp77itBr24fU8","latitude":36.2863033,"longitude":139.1739193,"data":[{"yid":"lgs_S-gP7bE","time":0}]},{"id":"92","pid":10,"name":"伊勢崎オートレース場","web":"https://isesaki-auto.jp/","map":"https://maps.app.goo.gl/6kkpTFfy9aV6c18cA","latitude":36.3349267,"longitude":139.1642888,"data":[{"yid":"RaHIYmQo6bo","time":0}]},{"id":"93","pid":10,"name":"赤城大沼 青木別館","web":"https://www.aokiryokan.co.jp/","map":"https://maps.app.goo.gl/eLdjzkUnT4ZRLhQT8","latitude":36.5482104,"longitude":139.1852464,"data":[{"yid":"YixpiABRQEg","time":0}]},{"id":"94","pid":10,"name":"JR上毛高原駅","web":"https://www.jreast.co.jp/estation/stations/844.html","map":"https://maps.app.goo.gl/2vWWcpBUSfYfvnDH9","latitude":36.6932477,"longitude":138.9776488,"data":[{"yid":"sYOQKUFLY9c","time":2762}]},{"id":"95","pid":10,"name":"猿ヶ京バンジー","web":"https://www.bungyjapan.com/sarugakyo/","map":"https://maps.app.goo.gl/W49oSosbp1SvCUGS9","latitude":36.7292965,"longitude":138.8953299,"data":[{"yid":"jDuiM6-g1Fc","time":0}]},{"id":"96","pid":10,"name":"渋川スカイランドパーク","web":"http://www.skyland89.jp/","map":"https://maps.app.goo.gl/Txi2Ssr4HaTvANuc7","latitude":36.5047462,"longitude":138.961971,"data":[{"yid":"1RBDKTmh0qY","time":3280}]},{"id":"97","pid":10,"name":"komorebiテラス ばんどうのゆ","web":"https://www.bandounoyu.com/","map":"https://maps.app.goo.gl/cDUNPXfz4GXPHQ2V8","latitude":36.4616082,"longitude":139.0417688,"data":[{"yid":"1RBDKTmh0qY","time":5183}]},{"id":"98","pid":10,"name":"BLISSFUL GARDEN","web":"https://blissful-g.jp/","map":"https://maps.app.goo.gl/nk8B1evXaeaMNh4W7","latitude":36.4615814,"longitude":139.0418655,"data":[{"yid":"1RBDKTmh0qY","time":5647}]},{"id":"99","pid":13,"name":"ブックスロケーション横須賀スタジオ","web":"https://bookslocation.com/yokosuka","map":"https://maps.app.goo.gl/RX5FUZdy44UDNwyRA","latitude":35.2483136,"longitude":139.7377232,"data":[{"yid":"9zRvuv3CiX0","time":1189},{"yid":"_HuuJCg7LxY","time":0}]},{"id":"100","pid":7,"name":"うどん そば 加賀","web":"https://tabelog.com/tokyo/A1318/A131807/13010425/","map":"https://maps.app.goo.gl/imVEUqh9Fp7GQ8GH8","latitude":35.681217,"longitude":139.6859131,"data":[{"yid":"MsWEOgJxHrg","time":582}]},{"id":"101","pid":7,"name":"‎ティファニー表参道","web":"https://www.tiffany.co.jp/jewelry-stores/tiffany-omotesando/","map":"https://maps.app.goo.gl/6SpyYPejodVwhvWK6","latitude":35.6661575,"longitude":139.7113394,"data":[{"yid":"_HSDtfrsRYo","time":0}]},{"id":"102","pid":7,"name":"kichiri 渋谷店","web":"https://kichiri.co.jp/japanstyle/shibuya/","map":"https://maps.app.goo.gl/eYkoApPeSS8YpU7g8","latitude":35.6598788,"longitude":139.6994026,"data":[{"yid":"OwLxKs5hLV4","time":0}]},{"id":"103","pid":18,"name":"昇仙峡ロープウェイ","web":"http://www.shousenkyo-r.jp/","map":"https://maps.app.goo.gl/WgWAZYquRkQwCEvw5","latitude":35.7534708,"longitude":138.5644022,"data":[{"yid":"_T43UuqhRe8","time":2334}]},{"id":"104","pid":18,"name":"ジュエリータウン昇仙峡","web":"https://www.shosenkyo-kankoukyokai.com/spot/%e3%82%b8%e3%83%a5%e3%82%a8%e3%83%aa%e3%83%bc%e3%82%bf%e3%82%a6%e3%83%b3/","map":"https://maps.app.goo.gl/xWTxYMVmKBT3VdbB7","latitude":35.7532264,"longitude":138.5645125,"data":[{"yid":"_T43UuqhRe8","time":760},{"yid":"m6FgHL2T-Lc","time":0}]},{"id":"105","pid":18,"name":"大衆肉酒場 さぶろー","web":"https://nbb4810.gorp.jp/","map":"https://maps.app.goo.gl/Z4fB1cS2CG8Uf94G9","latitude":35.66448,"longitude":138.5683048,"data":[{"yid":"_T43UuqhRe8","time":3065}]},{"id":"106","pid":18,"name":"酒処 繋","web":"https://tabelog.com/yamanashi/A1901/A190101/19012856/","map":"https://maps.app.goo.gl/BCGZDZZMSGa9mANH6","latitude":35.6657706,"longitude":138.568364,"data":[{"yid":"_T43UuqhRe8","time":5380}]},{"id":"107","pid":7,"name":"和牛焼肉　一心","web":"https://wagyu-isshin.jp/","map":"https://maps.app.goo.gl/Rp47Gv4VEth3ePRXA","latitude":35.6429475,"longitude":139.6985539,"data":[{"yid":"lFVoMZ-5MVM","time":7318}]},{"id":"108","pid":23,"name":"わらじや","web":"https://uzofusui-warajiya.kyoto/","map":"https://maps.app.goo.gl/LgHsr22TJCRJjRGY6","latitude":34.9893759,"longitude":135.7705106,"data":[{"yid":"vXYStf13xd4","time":769}]},{"id":"109","pid":7,"name":"グランド ハイアット 東京","web":"https://www.hyatt.com/ja-JP/hotel/japan/grand-hyatt-tokyo/tyogh","map":"https://maps.app.goo.gl/Ms7y1VCKQGj5obkH9","latitude":35.6596672,"longitude":139.7286659,"data":[{"yid":"cqCGNBJ3Ajo","time":0}]},{"id":"110","pid":7,"name":"武田塾 御茶ノ水本校","web":"https://www.takeda.tv/ochanomizu/","map":"https://maps.app.goo.gl/9eKeJ5GUxyM1zFb66","latitude":35.703368,"longitude":139.7643567,"data":[{"yid":"jPBB_ywq1Ps","time":6039}]},{"id":"111","pid":22,"name":"世界の山ちゃん 名駅新幹線口店","web":"https://www.yamachan.co.jp/shop/aichi/meiekishinkansenguchi.php","map":"https://maps.app.goo.gl/6GY5trgVTx9wBZvG7","latitude":35.1691893,"longitude":136.8809273,"data":[{"yid":"mNflBVktPWg","time":3748}]},{"id":"112","pid":12,"name":"東京ドイツ村","web":"https://t-doitsumura.co.jp/","map":"https://maps.app.goo.gl/nqAno7d4tZLiGVAi6","latitude":35.405705,"longitude":140.0538926,"data":[{"yid":"ARpd8v67rXA","time":2381}]},{"id":"113","pid":12,"name":"グランドーム千葉富津","web":"https://www.chibafuttsu-glamping.com/","map":"https://maps.app.goo.gl/cTkFuoPpHPVcFHBP9","latitude":35.2148784,"longitude":139.8687308,"data":[{"yid":"ARpd8v67rXA","time":4337}]}]